name,lat,lng
Schron Alfa (ul. Kozielska 4),52.2785,20.9812
Schron Huta Warszawa (Młociny),52.2921,20.9357
Schron Bielany (osiedlowy),52.2840,20.9560
Schron Wola (podziemia biurowca),52.2350,20.9800
Schron Mokotów (garaż podziemny),52.2000,21.0200
Schron Ursynów (garaż podziemny),52.1500,21.0500
Schron Praga Północ (piwnica szkoły),52.2580,21.0400
Schron Żerań (zakład przemysłowy),52.2950,21.0200
Schron Marymont (piwnica techniczna),52.2780,20.9800
